[
  {
    "id": "CREW-A",
    "name": "Crew Alpha",
    "skills": ["lineman", "hot_work"],
    "certifications": ["hot_stick", "bucket_truck", "cdl"],
    "shift_start": "06:00",
    "shift_end": "18:00",
    "home_base_lat": 36.0960,
    "home_base_lon": -79.4370,
    "current_lat": 36.0960,
    "current_lon": -79.4370,
    "status": "available"
  },
  {
    "id": "CREW-B",
    "name": "Crew Bravo",
    "skills": ["lineman"],
    "certifications": ["hot_stick", "bucket_truck", "cdl"],
    "shift_start": "06:00",
    "shift_end": "18:00",
    "home_base_lat": 36.0780,
    "home_base_lon": -79.4200,
    "current_lat": 36.0780,
    "current_lon": -79.4200,
    "status": "available"
  },
  {
    "id": "CREW-C",
    "name": "Crew Charlie",
    "skills": ["vegetation"],
    "certifications": ["cdl"],
    "shift_start": "07:00",
    "shift_end": "19:00",
    "home_base_lat": 36.1050,
    "home_base_lon": -79.4300,
    "current_lat": 36.1050,
    "current_lon": -79.4300,
    "status": "available"
  },
  {
    "id": "CREW-D",
    "name": "Crew Delta",
    "skills": ["lineman", "hot_work"],
    "certifications": ["hot_stick", "bucket_truck", "cdl"],
    "shift_start": "06:00",
    "shift_end": "18:00",
    "home_base_lat": 36.0985,
    "home_base_lon": -79.5030,
    "current_lat": 36.0985,
    "current_lon": -79.5030,
    "status": "available"
  },
  {
    "id": "CREW-E",
    "name": "Crew Echo",
    "skills": ["substation_tech"],
    "certifications": ["hot_stick", "cdl"],
    "shift_start": "06:00",
    "shift_end": "18:00",
    "home_base_lat": 36.0940,
    "home_base_lon": -79.4400,
    "current_lat": 36.0940,
    "current_lon": -79.4400,
    "status": "available"
  },
  {
    "id": "CREW-F",
    "name": "Crew Foxtrot",
    "skills": ["vegetation"],
    "certifications": ["cdl"],
    "shift_start": "07:00",
    "shift_end": "19:00",
    "home_base_lat": 36.0870,
    "home_base_lon": -79.5120,
    "current_lat": 36.0870,
    "current_lon": -79.5120,
    "status": "available"
  },
  {
    "id": "CREW-G",
    "name": "Crew Golf",
    "skills": ["lineman"],
    "certifications": ["hot_stick", "bucket_truck", "cdl"],
    "shift_start": "07:00",
    "shift_end": "19:00",
    "home_base_lat": 36.1100,
    "home_base_lon": -79.5170,
    "current_lat": 36.1100,
    "current_lon": -79.5170,
    "status": "available"
  },
  {
    "id": "CREW-H",
    "name": "Crew Hotel",
    "skills": ["lineman", "substation_tech"],
    "certifications": ["hot_stick", "bucket_truck", "cdl"],
    "shift_start": "06:00",
    "shift_end": "18:00",
    "home_base_lat": 36.0620,
    "home_base_lon": -79.4020,
    "current_lat": 36.0620,
    "current_lon": -79.4020,
    "status": "available"
  }
]
